[{"rating": 5.0, "review_count": 33, "name": "Archibald's Barbeque", "longitude": "-87.5703", "phone": "2053456861", "address": "1211 Martin Luther King Jr. Blvd., Northport, AL", "latitude": "33.22923"}, {"rating": 4.5, "review_count": 51, "name": "Big Daddy's Grill", "longitude": "-87.80533", "phone": "2519908555", "address": "16542 Ferry Road, Fairhope, AL", "latitude": "30.46573"}, {"rating": 3.5, "review_count": 45, "name": "Bob Sykes Barbeque", "longitude": "-86.96172", "phone": "180044", "address": "1724 9th Ave N, Bessemer, AL", "latitude": "33.40449"}, {"rating": 3.5, "review_count": 42, "name": "Bogue's", "longitude": "-86.78396", "phone": "2052549780", "address": "3028 Clairmont Ave. S, Birmingham, AL", "latitude": "33.51131"}, {"rating": 4.0, "review_count": 138, "name": "Brick Pit", "longitude": "-88.1684", "phone": "2513430001", "address": "5456 Old Shell Rd., Mobile, AL", "latitude": "30.6896"}, {"rating": 4.0, "review_count": 14, "name": "Burris Farm Market Bakery", "longitude": "-87.75297", "phone": "2519646464", "address": "Highway 59, Loxley, AL", "latitude": "30.61677"}, {"rating": 4.0, "review_count": 7, "name": "Carlile's Barbeque", "longitude": "-86.7795", "phone": "2052549266", "address": "3511 6th Avenue South, Birmingham, AL", "latitude": "33.51743"}, {"rating": 3.5, "review_count": 40, "name": "David Gibson's Barbeque", "longitude": "-86.62626", "phone": "2565396312", "address": "4114 Bob Wallace Avenue, Huntsville, AL", "latitude": "34.71328"}, {"rating": 3.5, "review_count": 37, "name": "Demetri's BBQ", "longitude": "-86.78953", "phone": "2058711581", "address": "1901 28th Avenue South, Homewood, AL", "latitude": "33.4812"}, {"rating": 3.5, "review_count": 27, "name": "Dew Drop Inn", "longitude": "-88.0814", "phone": "2514737872", "address": "1808 Old Shell Rd., Mobile, AL", "latitude": "30.6885"}, {"rating": 3.5, "review_count": 8, "name": "Foley Coffee Shop", "longitude": "-87.6837", "phone": "2519437433", "address": "213 N. McKenzie St., Foley, AL", "latitude": "30.4074"}, {"rating": 4.0, "review_count": 58, "name": "Greenbrier Restaurant", "longitude": "-86.84316", "phone": "2563511800", "address": "27028 Old Highway 20, Madison, AL", "latitude": "34.671"}, {"rating": 3.5, "review_count": 50, "name": "Hunt's Seafood & Oyster Bar", "longitude": "-85.4027", "phone": "3347945193", "address": "177 Campbellton Hwy, Dothan, AL", "latitude": "31.1887"}, {"rating": 3.5, "review_count": 62, "name": "Miss Myra's Pit Barbeque", "longitude": "-86.72619", "phone": "2059676004", "address": "3278 Cahaba Heights Road, Birmingham, AL", "latitude": "33.45424"}, {"rating": 4.0, "review_count": 92, "name": "Niki's West", "longitude": "-86.8401", "phone": "2052525751", "address": "233 Finley Ave, West, Birmingham, AL", "latitude": "33.5359"}, {"rating": 4.5, "review_count": 19, "name": "Staggs Grocery", "longitude": "-87.65754", "phone": "2567647382", "address": "1424 Huntsville Road, Florence, AL", "latitude": "34.80447"}, {"rating": 4.0, "review_count": 212, "name": "Wintzell's Oyster House", "longitude": "-88.05", "phone": "2514324605", "address": "605 Dauphin St., Mobile, AL", "latitude": "30.6889"}, {"rating": 4.0, "review_count": 26, "name": "Wintzell's Oyster House ", "longitude": "-86.31302", "phone": "2565825600", "address": "14455 US-431, Guntersville, AL", "latitude": "34.32328"}, {"latitude": "55.4719", "phone": "9078262939", "name": "Shelter Cove", "longitude": "-133.14009", "address": "703 Hamilton Drive, Craig, AK"}, {"rating": 4.5, "review_count": 45, "name": "Swiftwater Cafe", "longitude": "-148.65", "phone": "9074722550", "address": "8 Triangle Way, Whittier, AK", "latitude": "60.79"}, {"rating": 4.0, "review_count": 153, "name": "Bisbee Breakfast Club", "longitude": "-109.89355", "phone": "5204325885", "address": "75A Erie St., Bisbee, AZ", "latitude": "31.43004"}, {"rating": 4.0, "review_count": 184, "name": "BK Carne Asada & Hot Dogs", "longitude": "-110.96097", "phone": "5202072245", "address": "2680 North 1st Avenue, Tucson, AZ", "latitude": "32.25576"}, {"rating": 4.5, "review_count": 105, "name": "BK Carne Asada & Hot Dogs", "longitude": "-110.97787", "phone": "5202950105", "address": "5118 S. 12th Ave., Tucson, AZ", "latitude": "32.15903"}, {"latitude": "31.55239", "phone": "5204588580", "name": "Bobke's Bread Basket", "longitude": "-110.30431", "address": "355 W. Wilcox Dr., Sierra Vista, AZ"}, {"rating": 4.0, "review_count": 195, "name": "Boca Tacos Y Tequila", "longitude": "-110.95861", "phone": "5207778134", "address": "828 E. Speedway Blvd., Tucson, AZ", "latitude": "32.23565"}, {"rating": 3.5, "review_count": 5, "name": "Border Taco", "longitude": "-109.56094", "phone": "5203646196", "address": "103 E. 5th St. #3, Douglas, AZ", "latitude": "31.33924"}, {"rating": 4.0, "review_count": 685, "name": "Cafe Poca Cosa", "longitude": "-110.96959", "phone": "5206226400", "address": "110 E. Pennington St., Tucson, AZ", "latitude": "32.22322"}]