[{"rating": 5.0, "review_count": 35, "name": "Archibald's Barbeque", "longitude": "-87.5703", "phone": "2053456861", "address": "1211 Martin Luther King Jr. Blvd., Northport, AL", "latitude": "33.22923"}, {"rating": 4.5, "review_count": 51, "name": "Big Daddy's Grill", "longitude": "-87.80533", "phone": "2519908555", "address": "16542 Ferry Road, Fairhope, AL", "latitude": "30.46573"}, {"rating": 3.5, "review_count": 45, "name": "Bob Sykes Barbeque", "longitude": "-86.96172", "phone": "180044", "address": "1724 9th Ave N, Bessemer, AL", "latitude": "33.40449"}, {"rating": 3.5, "review_count": 42, "name": "Bogue's", "longitude": "-86.78396", "phone": "2052549780", "address": "3028 Clairmont Ave. S, Birmingham, AL", "latitude": "33.51131"}, {"rating": 4.0, "review_count": 138, "name": "Brick Pit", "longitude": "-88.1684", "phone": "2513430001", "address": "5456 Old Shell Rd., Mobile, AL", "latitude": "30.6896"}, {"rating": 4.0, "review_count": 14, "name": "Burris Farm Market Bakery", "longitude": "-87.75297", "phone": "2519646464", "address": "Highway 59, Loxley, AL", "latitude": "30.61677"}, {"rating": 4.0, "review_count": 7, "name": "Carlile's Barbeque", "longitude": "-86.7795", "phone": "2052549266", "address": "3511 6th Avenue South, Birmingham, AL", "latitude": "33.51743"}, {"rating": 3.5, "review_count": 40, "name": "David Gibson's Barbeque", "longitude": "-86.62626", "phone": "2565396312", "address": "4114 Bob Wallace Avenue, Huntsville, AL", "latitude": "34.71328"}, {"rating": 3.5, "review_count": 37, "name": "Demetri's BBQ", "longitude": "-86.78953", "phone": "2058711581", "address": "1901 28th Avenue South, Homewood, AL", "latitude": "33.4812"}, {"rating": 3.5, "review_count": 27, "name": "Dew Drop Inn", "longitude": "-88.0814", "phone": "2514737872", "address": "1808 Old Shell Rd., Mobile, AL", "latitude": "30.6885"}, {"rating": 3.5, "review_count": 8, "name": "Foley Coffee Shop", "longitude": "-87.6837", "phone": "2519437433", "address": "213 N. McKenzie St., Foley, AL", "latitude": "30.4074"}, {"rating": 4.0, "review_count": 58, "name": "Greenbrier Restaurant", "longitude": "-86.84316", "phone": "2563511800", "address": "27028 Old Highway 20, Madison, AL", "latitude": "34.671"}, {"rating": 3.5, "review_count": 50, "name": "Hunt's Seafood & Oyster Bar", "longitude": "-85.4027", "phone": "3347945193", "address": "177 Campbellton Hwy, Dothan, AL", "latitude": "31.1887"}, {"rating": 3.5, "review_count": 62, "name": "Miss Myra's Pit Barbeque", "longitude": "-86.72619", "phone": "2059676004", "address": "3278 Cahaba Heights Road, Birmingham, AL", "latitude": "33.45424"}, {"rating": 4.0, "review_count": 93, "name": "Niki's West", "longitude": "-86.8401", "phone": "2052525751", "address": "233 Finley Ave, West, Birmingham, AL", "latitude": "33.5359"}, {"rating": 4.5, "review_count": 19, "name": "Staggs Grocery", "longitude": "-87.65754", "phone": "2567647382", "address": "1424 Huntsville Road, Florence, AL", "latitude": "34.80447"}, {"rating": 4.0, "review_count": 214, "name": "Wintzell's Oyster House", "longitude": "-88.05", "phone": "2514324605", "address": "605 Dauphin St., Mobile, AL", "latitude": "30.6889"}, {"rating": 4.0, "review_count": 26, "name": "Wintzell's Oyster House ", "longitude": "-86.31302", "phone": "2565825600", "address": "14455 US-431, Guntersville, AL", "latitude": "34.32328"}, {"latitude": "55.4719", "phone": "9078262939", "name": "Shelter Cove", "longitude": "-133.14009", "address": "703 Hamilton Drive, Craig, AK"}, {"rating": 4.5, "review_count": 45, "name": "Swiftwater Cafe", "longitude": "-148.65", "phone": "9074722550", "address": "8 Triangle Way, Whittier, AK", "latitude": "60.79"}, {"rating": 4.0, "review_count": 154, "name": "Bisbee Breakfast Club", "longitude": "-109.89355", "phone": "5204325885", "address": "75A Erie St., Bisbee, AZ", "latitude": "31.43004"}, {"rating": 4.0, "review_count": 185, "name": "BK Carne Asada & Hot Dogs", "longitude": "-110.96097", "phone": "5202072245", "address": "2680 North 1st Avenue, Tucson, AZ", "latitude": "32.25576"}, {"rating": 4.5, "review_count": 105, "name": "BK Carne Asada & Hot Dogs", "longitude": "-110.97787", "phone": "5202950105", "address": "5118 S. 12th Ave., Tucson, AZ", "latitude": "32.15903"}, {"latitude": "31.55239", "phone": "5204588580", "name": "Bobke's Bread Basket", "longitude": "-110.30431", "address": "355 W. Wilcox Dr., Sierra Vista, AZ"}, {"rating": 4.0, "review_count": 195, "name": "Boca Tacos Y Tequila", "longitude": "-110.95861", "phone": "5207778134", "address": "828 E. Speedway Blvd., Tucson, AZ", "latitude": "32.23565"}, {"rating": 3.5, "review_count": 5, "name": "Border Taco", "longitude": "-109.56094", "phone": "5203646196", "address": "103 E. 5th St. #3, Douglas, AZ", "latitude": "31.33924"}, {"rating": 4.0, "review_count": 689, "name": "Cafe Poca Cosa", "longitude": "-110.96959", "phone": "5206226400", "address": "110 E. Pennington St., Tucson, AZ", "latitude": "32.22322"}, {"rating": 3.5, "review_count": 3, "name": "El Burron", "longitude": "-109.53386", "phone": "5208050141", "address": "1008 N. Cochise Dr., Douglas, AZ", "latitude": "31.34459"}, {"rating": 3.5, "review_count": 579, "name": "El Charro", "longitude": "-110.9742", "phone": "5206221922", "address": "311 N. Court Ave., Tucson, AZ", "latitude": "32.2251"}, {"rating": 4.0, "review_count": 426, "name": "El Guero Canelo", "longitude": "-110.97717", "phone": "5202959005", "address": "5201 S. 12th Ave., Tucson, AZ", "latitude": "32.1576"}, {"rating": 3.5, "review_count": 30, "name": "El Indio", "longitude": "-110.96783", "phone": "5206200504", "address": "3355 S. 6th Ave., Tucson, AZ", "latitude": "32.18541"}, {"rating": 4.5, "review_count": 11, "name": "El Manantial", "longitude": "-110.95591", "phone": "5204294248", "address": "1575 36th St., Tucson, AZ", "latitude": "32.19199"}, {"rating": 4.0, "review_count": 38, "name": "El Torero", "longitude": "-110.96641", "phone": "5206229534", "address": "231 E 26th St, Tucson, AZ", "latitude": "32.20255"}, {"rating": 3.5, "review_count": 79, "name": "Fry Bread House", "longitude": "-112.06083", "phone": "6023512345", "address": "1003 E. Indian School Rd., Phoenix, AZ", "latitude": "33.4944"}, {"rating": 4.0, "review_count": 510, "name": "Grimaldi's Coal Brick-Oven Pizzeria", "longitude": "-111.92618", "phone": "4809941100", "address": "4000 North Scottsdale Road, Scottsdale, AZ", "latitude": "33.49381"}, {"rating": 4.0, "review_count": 76, "name": "Gus Balon's", "longitude": "-110.8639", "phone": "5207477788", "address": "6027 E. 22nd St., Tucson, AZ", "latitude": "32.207"}, {"rating": 4.5, "review_count": 71, "name": "High Desert Market and Cafe", "longitude": "-109.92013", "phone": "5204326775", "address": "203 Tombstone Canyon, Bisbee, AZ", "latitude": "31.44314"}, {"rating": 3.5, "review_count": 92, "name": "Joe & Aggie's Cafe", "longitude": "-110.1589", "phone": "9285246540", "address": "120 W. Hopi Dr., Holbrook, AZ", "latitude": "34.9016"}, {"rating": 4.0, "review_count": 708, "name": "Joe's Real BBQ", "longitude": "-111.78965", "phone": "4805033805", "address": "301 North Gilbert Road, Gilbert, AZ", "latitude": "33.35491"}, {"rating": 4.5, "review_count": 12, "name": "Juice N Fruit", "longitude": "-110.9687", "phone": "5202955188", "address": "3502 South 6th Avenue, Suite 100, Tucson, AZ", "latitude": "32.18318"}, {"rating": 3.5, "review_count": 3, "name": "La Cabana", "longitude": "-110.9304", "phone": "5202878208", "address": "840 N. Grand Ave. #12, Nogales, AZ", "latitude": "31.3474"}, {"rating": 4.0, "review_count": 8, "name": "La Fiesta Cafe", "longitude": "-109.53285", "phone": "5208050033", "address": "1844 E. 10th St., Douglas, AZ", "latitude": "31.3445"}, {"rating": 4.5, "review_count": 94, "name": "Le Cave's", "longitude": "-110.9684", "phone": "5206242561", "address": "1219 S. 6th Ave., Tucson, AZ", "latitude": "32.2066"}, {"rating": 4.0, "review_count": 69, "name": "Lerua's Fine Mexican Food", "longitude": "-110.9422", "phone": "5206240322", "address": "2005 E. Broadway Blvd., Tucson, AZ", "latitude": "32.22171"}, {"rating": 4.5, "review_count": 176, "name": "Little Cafe Poca Cosa", "longitude": "-110.97188", "phone": "", "address": "151 N. Stone Ave., Tucson, AZ", "latitude": "32.224"}, {"rating": 4.0, "review_count": 1067, "name": "Lo-Lo's Chicken and Waffles", "longitude": "-112.07383", "phone": "6023401304", "address": "1220 S. Central Ave., Phoenix, AZ", "latitude": "33.43513"}, {"rating": 4.0, "review_count": 7, "name": "Los Jarritos", "longitude": "-110.97788", "phone": "5207460364", "address": "4832 S. 12th Ave., Tucson, AZ", "latitude": "32.16435"}, {"rating": 4.0, "review_count": 16, "name": "Mariscos Chihuahua", "longitude": "-110.9302", "phone": "5203261529", "address": "2902 E. 22nd St., Tucson, AZ", "latitude": "32.2068"}, {"rating": 4.0, "review_count": 322, "name": "Mi Nidito", "longitude": "-110.9658", "phone": "5206225081", "address": "1813 South 4th Ave., Tucson, AZ", "latitude": "32.1703"}, {"rating": 3.0, "review_count": 91, "name": "Millie's Pancake Haus", "longitude": "-110.85341", "phone": "5202984250", "address": "6530 Tanque Verde, Tucson, AZ", "latitude": "32.2458"}, {"rating": 3.5, "review_count": 205, "name": "Mother Hubbard's Cafe", "longitude": "-110.97205", "phone": "5206237976", "address": "14 W. Grant Rd., Tucson, AZ", "latitude": "32.25034"}, {"rating": 3.5, "review_count": 219, "name": "Mrs. White's Golden Rule Cafe", "longitude": "-112.06343", "phone": "6022629256", "address": "808 E. Jefferson St., Phoenix, AZ", "latitude": "33.44751"}, {"rating": 5.0, "review_count": 30, "name": "Old Bisbee Roasters", "longitude": "-109.91341", "phone": "8664325063", "address": "7 Naco Rd., Bisbee, AZ", "latitude": "31.44173"}, {"rating": 3.5, "review_count": 85, "name": "Pat's Drive-In", "longitude": "-110.98969", "phone": "5206240891", "address": "1202 W Niagara St, Tucson, AZ", "latitude": "32.23189"}, {"rating": 4.0, "review_count": 217, "name": "Pico de Gallo", "longitude": "-110.9683", "phone": "5206238775", "address": "2618 S. 6th Ave., South Tucson, AZ", "latitude": "32.1919"}, {"rating": 5.0, "review_count": 4, "name": "Pittsburgh Willy's", "longitude": "-111.84108", "phone": "4808572860", "address": "1509 North Arizona Avenue, Chandler, AZ", "latitude": "33.33112"}, {"rating": 4.0, "review_count": 1602, "name": "Pizzeria Bianco", "longitude": "-112.06546", "phone": "6022588300", "address": "623 East Adams Street, Phoenix, AZ", "latitude": "33.44923"}, {"rating": 4.5, "review_count": 648, "name": "Prep & Pastry", "longitude": "-110.94468", "phone": "5203267737", "address": "3073 N. Campbell Ave., Tucson, AZ", "latitude": "32.26279"}, {"rating": 3.5, "review_count": 23, "name": "RD's Drive-In", "longitude": "-111.46134", "phone": "", "address": "146 North Lake Powell Boulevard, Page, AZ", "latitude": "36.91971"}, {"latitude": "33.49493", "phone": "6022662000", "name": "Stacy's Smoke Dem Bones Pit Stop BBQ", "longitude": "-112.04573", "address": "1650 E. Indian School Road, Phoenix, AZ"}, {"rating": 3.5, "review_count": 374, "name": "Sugar Bowl", "longitude": "-111.9261", "phone": "6029460051", "address": "4005 N. Scottsdale Rd., Scottsdale, AZ", "latitude": "33.4939"}, {"rating": 4.0, "review_count": 84, "name": "Tacos De Juarez", "longitude": "-112.06476", "phone": "6022581744", "address": "1017 N 7th Street, Phoenix, AZ", "latitude": "33.45935"}, {"rating": 4.0, "review_count": 455, "name": "Ted's Hot Dogs", "longitude": "-111.91006", "phone": "4809686678", "address": "1755 East Broadway, Tempe, AZ", "latitude": "33.4073"}, {"rating": 3.5, "review_count": 202, "name": "Teresa's Mosaic Cafe", "longitude": "-111.01553", "phone": "5206244512", "address": "2456 North Silver Mosaic Drive, Tucson, AZ", "latitude": "32.25149"}, {"rating": 4.5, "review_count": 501, "name": "Tucson Tamale Company", "longitude": "-110.93411", "phone": "5203054760", "address": "2545 East Broadway Boulevard, Tucson, AZ", "latitude": "32.22153"}, {"rating": 3.5, "review_count": 232, "name": "Valle Luna", "longitude": "-111.87519", "phone": "4807863100", "address": "1949 West Ray Road, Chandler, AZ", "latitude": "33.32048"}, {"latitude": "33.56748", "phone": "6234352024", "name": "Vantastic", "longitude": "-112.16112", "address": "4729 West Olive Avenue, Glendale, AZ"}, {"rating": 3.5, "review_count": 36, "name": "AQ Chicken House", "longitude": "-94.13824", "phone": "4797514633", "address": "1207 N. Thompson, Springdale, AR", "latitude": "36.19473"}, {"rating": 1.5, "review_count": 2, "name": "Bean Palace", "longitude": "-93.9423", "phone": "8707895343", "address": "11045 War Eagle Rd., Rogers, AR", "latitude": "36.2768"}, {"rating": 4.5, "review_count": 4, "name": "Bendi's Diner", "longitude": "-91.30772", "phone": "8707471447", "address": "101 N. 6th Street, Clarendon, AR", "latitude": "34.69562"}, {"rating": 4.0, "review_count": 4, "name": "Charlotte's Eats & Sweets", "longitude": "-92.00977", "phone": "5018422123", "address": "290 Main Street, Keo, AR", "latitude": "34.6017"}, {"rating": 4.0, "review_count": 21, "name": "Cotham's Mercantile", "longitude": "-92.10034", "phone": "5019619284", "address": "5301 Highway 161 South, Scott, AR", "latitude": "34.6699"}, {"rating": 5.0, "review_count": 17, "name": "Coursey's", "longitude": "-92.7803", "phone": "8704392503", "address": "Highway 65, St. Joe, AR", "latitude": "36.0111"}, {"rating": 4.5, "review_count": 10, "name": "Craig's", "longitude": "-91.51645", "phone": "5019982616", "address": "Rt. 70, DeValls Bluff, AR", "latitude": "34.78217"}, {"rating": 4.0, "review_count": 71, "name": "Doe's Eat Place", "longitude": "-92.2813", "phone": "5013761195", "address": "1023 W. Markham St., Little Rock, AR", "latitude": "34.7495"}, {"rating": 4.0, "review_count": 39, "name": "Ed Walker's Drive In", "longitude": "-94.42188", "phone": "4797833352", "address": "1500 Towson Avenue, Fort Smith, AR", "latitude": "35.36905"}, {"rating": 4.5, "review_count": 3, "name": "Family Pie Shop", "longitude": "-91.51645", "phone": "8709982279", "address": "Route 70, DeValls Bluff, AR", "latitude": "34.78265"}, {"rating": 3.5, "review_count": 36, "name": "Feltner's Whatta-burger", "longitude": "-93.1333", "phone": "4799681410", "address": "1410 North Arkansas, Russellville, AR", "latitude": "35.292"}, {"rating": 3.0, "review_count": 14, "name": "Gene's Barbeque", "longitude": "-91.19446", "phone": "8707349965", "address": "1107 N. Highway 17, Brinkley, AR", "latitude": "34.8782"}, {"rating": 4.0, "review_count": 13, "name": "Grapevine", "longitude": "-93.72886", "phone": "4799632413", "address": "105 E. Walnut, Paris, AR", "latitude": "35.29212"}, {"rating": 5.0, "review_count": 3, "name": "Jones Barbeque Diner", "longitude": "-90.76471", "phone": "8702953802", "address": "219 W. Louisiana St., Marianna, AR", "latitude": "34.76862"}, {"rating": 4.0, "review_count": 123, "name": "McClard's Barbeque", "longitude": "-93.075", "phone": "5016239665", "address": "505 Albert Pike, Hot Springs, AR", "latitude": "34.4963"}, {"rating": 4.5, "review_count": 3, "name": "Ms. Lena's Pies", "longitude": "-91.45904", "phone": "8709987217", "address": "2885 Highway 33S, De Valls Bluff, AR", "latitude": "34.77941"}, {"rating": 5.0, "review_count": 13, "name": "Rhoda\u2019s Famous Tamales", "longitude": "-91.28534", "phone": "8702653108", "address": "714 Saint Mary St., Lake Village, AR", "latitude": "33.32992"}, {"rating": 5.0, "review_count": 1, "name": "Rogerland Restaurant", "longitude": "-93.7291", "phone": "4799631257", "address": "27 South 1st St., Paris, AR", "latitude": "35.29161"}, {"latitude": "34.47775", "phone": "5016241552", "name": "Stubby's Hik-Ry Pit Barbequeue", "longitude": "-93.06024", "address": "3024 Central Ave, Hot Springs, AR"}, {"rating": 4.0, "review_count": 132, "name": "The Pancake Shop", "longitude": "-93.05436", "phone": "5016245720", "address": "216 Central Avenue, Hot Springs, AR", "latitude": "34.51718"}, {"rating": 4.0, "review_count": 7, "name": "Wagon Wheel", "longitude": "-92.38899", "phone": "5016795009", "address": "166 S. Broadview St., Greenbrier, AR", "latitude": "35.20718"}, {"rating": 4.0, "review_count": 106, "name": "Al's Place", "longitude": "-121.5094", "phone": "9167761800", "address": "13936 Main St., Locke, CA", "latitude": "38.25027"}, {"rating": 4.0, "review_count": 752, "name": "Andre's Italian Restaurant", "longitude": "-118.35985", "phone": "3239321246", "address": "6332 West 3rd Street, Los Angeles, CA", "latitude": "34.07129"}, {"rating": 4.0, "review_count": 179, "name": "B&R's Old Fashion Burgers", "longitude": "-118.33329", "phone": "3106794774", "address": "3512 West Rosecrans Avenue, Hawthorne , CA", "latitude": "33.90184"}, {"rating": 4.0, "review_count": 3741, "name": "Bakesale Betty's", "longitude": "-122.26225", "phone": "5109851213", "address": "5098 Telegraph Ave., Oakland, CA", "latitude": "37.83718"}, {"rating": 4.0, "review_count": 1239, "name": "Barbara's Fish Trap", "longitude": "-122.48314", "phone": "6507287049", "address": "281 Capistrano Rd., Half Moon Bay, CA", "latitude": "37.50366"}, {"rating": 3.5, "review_count": 588, "name": "Barney's", "longitude": "-122.25141", "phone": "5106557180", "address": "4162 Piedmont Ave., Oakland, CA", "latitude": "37.82717"}, {"rating": 2.5, "review_count": 61, "name": "BBQ Land", "longitude": "-120.43672", "phone": "8053468537", "address": "1975 South Broadway, Santa Maria, CA", "latitude": "34.9244"}, {"rating": 4.0, "review_count": 1665, "name": "Best Fish Taco in Ensenada", "longitude": "-118.2874", "phone": "3234665552", "address": "1650 North Hillhurst Avenue, Los Angeles, CA", "latitude": "34.10101"}, {"rating": 4.0, "review_count": 1434, "name": "Bette's Oceanview Diner", "longitude": "-122.30078", "phone": "5106443230", "address": "1807 4th Street, Berkeley, CA", "latitude": "37.87029"}, {"rating": 4.5, "review_count": 8583, "name": "Bi-Rite Creamery", "longitude": "-122.42588", "phone": "4156265600", "address": "3692 18th St., San Francisco, CA", "latitude": "37.76148"}, {"rating": 4.0, "review_count": 1468, "name": "Brophy Brothers", "longitude": "-119.69369", "phone": "8059664418", "address": "119 Harbor Way, Santa Barbara, CA", "latitude": "34.40421"}, {"rating": 4.0, "review_count": 3531, "name": "Bruxie", "longitude": "-117.85311", "phone": "7146333900", "address": "292 North Glassell Street, Orange, CA", "latitude": "33.79136"}, {"rating": 5.0, "review_count": 1, "name": "Buttercup Bakery", "longitude": "-123.63567", "phone": "5306293880", "address": "39010 Highway 299, Willow Creek, CA", "latitude": "40.93893"}, {"rating": 4.0, "review_count": 938, "name": "Cacao Mexicatessen", "longitude": "-118.20066", "phone": "3234782791", "address": "1576 Colorado Blvd, Eagle Rock, CA", "latitude": "34.13927"}, {"rating": 4.0, "review_count": 498, "name": "California Roll Factory", "longitude": "-118.45467", "phone": "3109962366", "address": "11629 Santa Monica Boulevard, Los Angeles , CA", "latitude": "34.04437"}, {"rating": 3.5, "review_count": 104, "name": "Chicken Pie Shop", "longitude": "-119.80071", "phone": "", "address": "861 East Olive Avenue, Fresno, CA", "latitude": "36.75768"}, {"rating": 4.0, "review_count": 397, "name": "Cielito Lindo", "longitude": "-118.23712", "phone": "2136874391", "address": "E-23 Olvera Street, Los Angeles, CA", "latitude": "34.05805"}, {"rating": 4.0, "review_count": 381, "name": "Clifton's Cafeteria", "longitude": "-118.25271", "phone": "2136271673", "address": "648 S. Broadway, Los Angeles, CA", "latitude": "34.04521"}, {"rating": 4.0, "review_count": 2585, "name": "Cottage", "longitude": "-117.2746", "phone": "8584548409", "address": "7702 Fay Ave, La Jolla, CA", "latitude": "32.8432"}, {"rating": 3.5, "review_count": 889, "name": "D.Z. Akins", "longitude": "-117.0491", "phone": "6192650218", "address": "6930 Alvarado Rd., San Diego, CA", "latitude": "32.7745"}, {"rating": 4.5, "review_count": 616, "name": "Daichan", "longitude": "-118.37556", "phone": "8189808450", "address": "11288 Ventura Blvd, Studio City, CA", "latitude": "34.1403"}, {"rating": 3.5, "review_count": 54, "name": "Damburger", "longitude": "-122.38916", "phone": "5302410136", "address": "1320 Placer Street, Redding, CA", "latitude": "40.58259"}, {"rating": 4.5, "review_count": 406, "name": "Dianda's Italian Pastries", "longitude": "-122.41828", "phone": "4156475469", "address": "2883 Mission Street, San Francisco, CA", "latitude": "37.75102"}, {"rating": 3.5, "review_count": 334, "name": "Dinah's Original Recipe Fried Chicken", "longitude": "-118.25978", "phone": "8182444188", "address": "4106 San Fernando Road, Glendale, CA", "latitude": "34.12947"}, {"rating": 3.5, "review_count": 94, "name": "Domenick's", "longitude": "-118.2643", "phone": "3108348990", "address": "24209 Avalon Blvd, Carson, CA", "latitude": "33.8054"}, {"rating": 4.5, "review_count": 2607, "name": "Donut Man", "longitude": "-117.84973", "phone": "6263359111", "address": "915 E Route 66, Glendora, CA", "latitude": "34.12896"}, {"rating": 4.0, "review_count": 3026, "name": "Dottie's True Blue Cafe", "longitude": "-122.40969", "phone": "4158852767", "address": "28 Sixth Street, San Francisco, CA", "latitude": "37.78173"}, {"rating": 3.5, "review_count": 868, "name": "Duarte's Tavern", "longitude": "-122.3829", "phone": "6508790464", "address": "202 Stage Rd., Pescadero, CA", "latitude": "37.2516"}, {"rating": 3.5, "review_count": 516, "name": "Du-Par's", "longitude": "-118.36038", "phone": "3239338446", "address": "6333 W. Third St., Los Angeles, CA", "latitude": "34.0722"}, {"rating": 4.0, "review_count": 36, "name": "Dutch Oven Bakery", "longitude": "-118.13154", "phone": "6267943555", "address": "2281 Lake Avenue, Altadena, CA", "latitude": "34.18505"}, {"rating": 4.0, "review_count": 109, "name": "Earl's Donuts", "longitude": "-118.57786", "phone": "8183412869", "address": "20429 Devonshire Street, Chatsworth, CA", "latitude": "34.25725"}, {"rating": 3.0, "review_count": 91, "name": "Eddie Rickenbacker's", "longitude": "-122.39898", "phone": "4155433498", "address": "133 Second Street, San Francisco, CA", "latitude": "37.78768"}, {"rating": 4.0, "review_count": 326, "name": "El Campeon", "longitude": "-117.6626", "phone": "9494899767", "address": "31921 Camino Capistrano, San Juan Capistrano, CA", "latitude": "33.50056"}, {"rating": 4.0, "review_count": 198, "name": "El Gallito", "longitude": "-116.4606", "phone": "7603287794", "address": "68820 Grove St., Cathedral City, CA", "latitude": "33.7792"}, {"rating": 3.5, "review_count": 1075, "name": "El Indio", "longitude": "-117.1803", "phone": "6192990333", "address": "3695 India St., San Diego, CA", "latitude": "32.7423"}, {"latitude": "34.22156", "phone": "8187659259", "name": "El Indio Mexican Restaurant", "longitude": "-118.50364", "address": "17019 Roscoe, Northridge, CA"}, {"rating": 5.0, "review_count": 52, "name": "El Paisa Taco Truck", "longitude": "-122.22858", "phone": "5103845465", "address": "2900 International Blvd., Oakland, CA", "latitude": "37.77949"}, {"rating": 3.5, "review_count": 1524, "name": "El Taurino Tacos", "longitude": "-118.28339", "phone": "2137381917", "address": "2306 W 11th St, Los Angeles, CA", "latitude": "34.05132"}, {"rating": 4.0, "review_count": 1510, "name": "El Tepeyac Cafe", "longitude": "-118.19769", "phone": "3232678668", "address": "812 North Evergreen Avenue, Los Angeles, CA", "latitude": "34.04784"}, {"rating": 4.0, "review_count": 524, "name": "Elena's", "longitude": "-118.25175", "phone": "8182415730", "address": "1000 South Glendale Avenue, Glendale, CA", "latitude": "34.13486"}, {"rating": 4.0, "review_count": 895, "name": "Fab Hot Dogs", "longitude": "-118.55603", "phone": "8183444336", "address": "19417 Victory Boulevard, Reseda, CA", "latitude": "34.18666"}, {"rating": 4.0, "review_count": 3604, "name": "Fenton's", "longitude": "-122.25039", "phone": "5106587000", "address": "4226 Piedmont Ave., Oakland, CA", "latitude": "37.82794"}, {"latitude": "33.88018", "phone": "3103524037", "name": "Flossie's Southern Kitchen", "longitude": "-118.33485", "address": "3566 Redondo Beach Boulevard, Torrance, CA"}, {"rating": 4.0, "review_count": 1928, "name": "Fosselman's Ice Cream Company", "longitude": "-118.14364", "phone": "6263836533", "address": "1824 West Main Street, Alhambra, CA", "latitude": "34.0915"}, {"rating": 4.0, "review_count": 293, "name": "Frog Hollow Farm", "longitude": "-122.39463", "phone": "4154450990", "address": "Ferry Building (#46), San Francisco, CA", "latitude": "37.79632"}, {"rating": 3.5, "review_count": 414, "name": "Gaffey Street Diner", "longitude": "-118.29238", "phone": "3105486964", "address": "247 North Gaffey Street , San Pedro, CA", "latitude": "33.74479"}, {"rating": 4.5, "review_count": 656, "name": "Galco\u2019s Soda Pop Stop", "longitude": "-118.19353", "phone": "3232557115", "address": "5702 York Blvd., Los Angeles, CA", "latitude": "34.11856"}, {"rating": 4.0, "review_count": 133, "name": "Giusti's", "longitude": "-121.4972", "phone": "9167761808", "address": "14743 Walnut Grove-Thornton Rd., Walnut Grove, CA", "latitude": "38.2239"}, {"rating": 4.0, "review_count": 1321, "name": "Gott's Roadside", "longitude": "-122.46476", "phone": "7079633486", "address": "933 Main Street, St. Helena, CA", "latitude": "38.50163"}, {"rating": 4.5, "review_count": 56, "name": "G's Juice", "longitude": "-118.44666", "phone": "3108227733", "address": "343 Culver Boulevard, Playa Del Rey, CA", "latitude": "33.96066"}, {"rating": 4.0, "review_count": 257, "name": "Hadley Fruit Orchards", "longitude": "-116.78217", "phone": "9518495255", "address": "48-980 Seminole Dr., Cabazon, CA", "latitude": "33.91927"}, {"rating": 4.5, "review_count": 178, "name": "Hitching Post", "longitude": "-120.53037", "phone": "8059376151", "address": "3325 Point Sal Rd., Casmalia, CA", "latitude": "34.83858"}, {"rating": 3.5, "review_count": 600, "name": "Hob Nob Hill", "longitude": "-117.1638", "phone": "6192398176", "address": "2271 First Ave., San Diego, CA", "latitude": "32.7289"}, {"rating": 4.0, "review_count": 4176, "name": "Hodad's", "longitude": "-117.2512", "phone": "6192244623", "address": "5010 Newport Ave., Ocean Beach, CA", "latitude": "32.747"}, {"rating": 3.5, "review_count": 2387, "name": "House of Nanking", "longitude": "-122.40521", "phone": "4154211429", "address": "919 Kearny Street, San Francisco, CA", "latitude": "37.79665"}, {"rating": 4.5, "review_count": 3063, "name": "Ici", "longitude": "-122.25306", "phone": "5106656054", "address": "2948 College Ave., Berkeley, CA", "latitude": "37.85723"}, {"rating": 4.0, "review_count": 933, "name": "In-N-Out Burger", "longitude": "-118.3418", "phone": "8007861000", "address": "7009 W. Sunset Blvd., Hollywood, CA", "latitude": "34.098"}, {"rating": 3.5, "review_count": 657, "name": "Jax Truckee Diner", "longitude": "-120.1841", "phone": "5305507450", "address": "10144 River Street, Truckee, CA", "latitude": "39.32743"}, {"latitude": "37.8905", "phone": "5105261109", "name": "Jodie's Restaurant", "longitude": "-122.29362", "address": "902 Masonic Avenue, Albany, CA"}, {"rating": 3.5, "review_count": 468, "name": "Joe Peep's", "longitude": "-118.40489", "phone": "8185064133", "address": "12460 Magnolia Blvd, Valley Village, CA", "latitude": "34.16459"}, {"rating": 3.5, "review_count": 410, "name": "John O'Groats", "longitude": "-118.41949", "phone": "3102040692", "address": "10516 West Pico Boulevard, Los Angeles, CA", "latitude": "34.0449"}, {"rating": 4.0, "review_count": 1291, "name": "Johnnie's Pastrami Restaurant", "longitude": "-118.41377", "phone": "3103976654", "address": "4017 Sepulveda Boulevard, Culver City, CA", "latitude": "34.00825"}, {"rating": 4.0, "review_count": 218, "name": "Johnny's Pastrami on Adams ", "longitude": "-118.33327", "phone": "3237346003", "address": "4331 West Adams Blvd., Los Angeles, CA", "latitude": "34.03279"}, {"rating": 4.0, "review_count": 448, "name": "Juanita's Taco Shop", "longitude": "-117.29702", "phone": "7609439612", "address": "290 North Coast Highway 101, Encinitas, CA", "latitude": "33.05417"}, {"rating": 4.0, "review_count": 102, "name": "Julian Pie Company", "longitude": "-116.6263", "phone": "7607652400", "address": "21976 Highway 79, Santa Ysabel, CA", "latitude": "33.0778"}, {"rating": 3.5, "review_count": 1589, "name": "Kingdom of Dumpling", "longitude": "-122.48457", "phone": "4155666143", "address": "1713 Taraval Street, San Francisco, CA", "latitude": "37.74264"}, {"rating": 4.0, "review_count": 1005, "name": "Kono's Surf Club Cafe", "longitude": "-117.2565", "phone": "8584831669", "address": "704 Garnet Ave, San Diego, CA", "latitude": "32.7963"}, {"rating": 3.5, "review_count": 732, "name": "Kowloon Tong Dessert Cafe", "longitude": "-122.46561", "phone": "4158761289", "address": "393 7th Avenue, San Francisco, CA", "latitude": "37.78136"}, {"rating": 4.0, "review_count": 412, "name": "La Fachada", "longitude": "-117.14052", "phone": "6192368566", "address": "20 25th St, San Diego, CA", "latitude": "32.7056"}, {"rating": 4.5, "review_count": 529, "name": "La Farine", "longitude": "-122.25238", "phone": "5106540338", "address": "6323 College Ave., Oakland, CA", "latitude": "37.85048"}, {"rating": 4.0, "review_count": 938, "name": "La Super Rica", "longitude": "-119.68714", "phone": "8059634940", "address": "622 N. Milpas St., Santa Barbara, CA", "latitude": "34.42804"}, {"rating": 4.0, "review_count": 1096, "name": "Las Fuentes", "longitude": "-118.534", "phone": "8187083344", "address": "18415 Vanowen Street, Reseda, CA", "latitude": "34.19387"}, {"rating": 4.0, "review_count": 410, "name": "Les Sisters' Southern Kitchen", "longitude": "-118.60409", "phone": "8189980755", "address": "21818 Devonshire Street, Chatsworth, CA", "latitude": "34.25723"}, {"rating": 3.5, "review_count": 305, "name": "LG's Prime Steak House", "longitude": "-116.5467", "phone": "7604161779", "address": "255 S. Palm Canyon, Palm Springs, CA", "latitude": "33.8202"}, {"rating": 4.5, "review_count": 260, "name": "Los Cinco Puntos", "longitude": "-118.19305", "phone": "3232614084", "address": "3300 East Cesar E Chavez Avenue, Los Angeles , CA", "latitude": "34.0403"}, {"rating": 4.0, "review_count": 199, "name": "Mama's Hot Tamales Cafe", "longitude": "-118.2771", "phone": "2134877474", "address": "2124 West 7th Street, Los Angeles, CA", "latitude": "34.0566"}, {"rating": 4.0, "review_count": 3226, "name": "Mama's on Washington Square", "longitude": "-122.40938", "phone": "4153626421", "address": "1701 Stockton St., San Francisco, CA", "latitude": "37.80141"}, {"rating": 4.5, "review_count": 3, "name": "Marie's Do-Nut Shop", "longitude": "-121.48871", "phone": "0000000000", "address": "2950 Freeport Boulevard, Sacramento, CA\"", "latitude": "38.55121"}, {"rating": 4.0, "review_count": 1337, "name": "Mission Pie", "longitude": "-122.41819", "phone": "4152824", "address": "2901 Mission Street, San Francisco, CA", "latitude": "37.75055"}, {"rating": 4.0, "review_count": 97, "name": "Mitla Cafe", "longitude": "-117.31384", "phone": "9098880460", "address": "602 North Mount Vernon Avenue, San Bernardino, CA", "latitude": "34.11023"}, {"rating": 3.5, "review_count": 204, "name": "Mom's Tamales", "longitude": "-118.2135", "phone": "3232269383", "address": "3328 Pasadena Avenue, Los Angeles, CA", "latitude": "34.08393"}, {"rating": 4.0, "review_count": 190, "name": "Munch Box", "longitude": "-118.59974", "phone": "8189989240", "address": "21532 Devonshire Street, Chatsworth, CA", "latitude": "34.25724"}, {"rating": 4.0, "review_count": 705, "name": "Musso & Frank", "longitude": "-118.3353", "phone": "3234677788", "address": "6667 Hollywood Blvd, Los Angeles, CA", "latitude": "34.1015"}, {"rating": 4.0, "review_count": 264, "name": "Nationwide Meats", "longitude": "-121.47941", "phone": "9164443286", "address": "1930 H Street, Sacramento, CA", "latitude": "38.579"}, {"rating": 4.0, "review_count": 136, "name": "Natural Cafe", "longitude": "-118.71786", "phone": "8055272272", "address": "2667 Tapo Canyon Road Unit G, Simi Valley, CA", "latitude": "34.28381"}, {"rating": 4.0, "review_count": 231, "name": "O.B. Smoothie Bar & Sub Express", "longitude": "-117.2512", "phone": "6197566265", "address": "5001A  Newport Avenue, Ocean Beach, CA", "latitude": "32.74694"}, {"rating": 3.5, "review_count": 39, "name": "Oasis Date Gardens", "longitude": "-116.1157", "phone": "8008278017", "address": "59-111 Grapefruit Boulevard, Thermal, CA", "latitude": "33.61305"}, {"rating": 4.0, "review_count": 186, "name": "Orange Inn", "longitude": "-117.77957", "phone": "9494946085", "address": "703 South Coast Highway, Laguna Beach, CA", "latitude": "33.53751"}, {"rating": 3.5, "review_count": 78, "name": "Original Mel's", "longitude": "-121.41578", "phone": "9166417500", "address": "565 Howe Avenue, Sacramento, CA", "latitude": "38.5764"}, {"rating": 3.5, "review_count": 1920, "name": "Original Pantry", "longitude": "-118.26268", "phone": "2139729279", "address": "877 S. Figueroa St., Los Angeles, CA", "latitude": "34.04633"}, {"rating": 3.0, "review_count": 325, "name": "Pancake Circus", "longitude": "-121.48567", "phone": "9164523322", "address": "2101 Broadway, Sacramento, CA", "latitude": "38.55988"}, {"rating": 4.0, "review_count": 725, "name": "Pann's", "longitude": "-118.37064", "phone": "3106701441", "address": "6710 LaTijera Blvd., Los Angeles, CA", "latitude": "33.97795"}, {"rating": 4.5, "review_count": 33, "name": "Pastels Bistro", "longitude": "-116.23348", "phone": "7608524505", "address": "860 Tecopa Hot Springs Road, Tecopa, CA", "latitude": "35.86438"}, {"rating": 4.0, "review_count": 69, "name": "Pasty Shack", "longitude": "-121.44427", "phone": "9164549630", "address": "4746 J Street, Sacramento, CA", "latitude": "38.5672"}, {"rating": 4.0, "review_count": 4462, "name": "Philippe the Original", "longitude": "-118.23687", "phone": "2136283781", "address": "1001 N Alameda St., Los Angeles, CA", "latitude": "34.05975"}, {"rating": 4.0, "review_count": 175, "name": "Phyllis Giant Burgers", "longitude": "-122.54915", "phone": "4154560866", "address": "2202 4th Street, San Rafael, CA", "latitude": "37.97619"}, {"rating": 3.5, "review_count": 1057, "name": "Pie \u2018N Burger", "longitude": "-118.13136", "phone": "6267951123", "address": "913 E. California Blvd., Pasadena, CA", "latitude": "34.13624"}, {"rating": 3.5, "review_count": 6180, "name": "Pink's Famous Chili Dogs", "longitude": "-118.34415", "phone": "3239314223", "address": "709 N La Brea Ave, Los Angeles, CA", "latitude": "34.08389"}, {"rating": 3.5, "review_count": 336, "name": "Putah Creek Cafe", "longitude": "-121.9688", "phone": "5307952682", "address": "1 Main St., Winters, CA", "latitude": "38.5218"}, {"rating": 3.5, "review_count": 129, "name": "R & J Southern Homecooking", "longitude": "-118.14474", "phone": "5624082211", "address": "8852 Rosecrans Avenue, Downey, CA", "latitude": "33.90365"}, {"rating": 3.0, "review_count": 160, "name": "Ramona Cafe", "longitude": "-116.8627", "phone": "7607898656", "address": "628 Main St., Ramona, CA", "latitude": "33.0451"}, {"rating": 4.0, "review_count": 1172, "name": "Randy's Donuts", "longitude": "-118.3774", "phone": "3106454707", "address": "805 West Manchester Ave., Inglewood, CA", "latitude": "33.9598"}, {"rating": 3.5, "review_count": 703, "name": "Rick & Ann's", "longitude": "-122.24394", "phone": "5108498538", "address": "2922 Domingo Ave., Berkeley, CA", "latitude": "37.85867"}, {"rating": 4.0, "review_count": 2568, "name": "Roscoe\u2019s House of Chicken \u2019n Waffles", "longitude": "-118.32228", "phone": "3234667453", "address": "1518 North Gower Street, Los Angeles, CA", "latitude": "34.09863"}, {"rating": 3.5, "review_count": 257, "name": "Sam's Grill", "longitude": "-122.4034", "phone": "4154210594", "address": "374 Bush St., San Francisco, CA", "latitude": "37.7907"}, {"rating": 3.5, "review_count": 786, "name": "San Diego Chicken Pie Shop", "longitude": "-117.1359", "phone": "6192950156", "address": "2633 El Cajon Blvd, San Diego, CA", "latitude": "32.7551"}, {"rating": 3.5, "review_count": 1349, "name": "Sears Fine Foods", "longitude": "-122.4083", "phone": "4159860700", "address": "439 Powell, San Francisco, CA", "latitude": "37.7885"}, {"rating": 4.0, "review_count": 1119, "name": "Seoul Sausage Co.", "longitude": "-118.443", "phone": "3104777738", "address": "11313 Mississippi Avenue, Los Angeles, CA", "latitude": "34.03944"}, {"rating": 4.0, "review_count": 332, "name": "Shaky Alibi", "longitude": "-118.35123", "phone": "3239385282", "address": "7401 Beverly Boulevard, Los Angeles , CA", "latitude": "34.07631"}, {"rating": 4.0, "review_count": 882, "name": "Sherman's Deli & Bakery", "longitude": "-116.54333", "phone": "7603251199", "address": "401 E Tahquitz Canyon Way, Palm Springs, CA", "latitude": "33.82287"}, {"rating": 4.0, "review_count": 78, "name": "Shields Date Gardens", "longitude": "-116.2648", "phone": "7603470996", "address": "80-225 US Highway 111, Indio, CA", "latitude": "33.7072"}, {"rating": 3.5, "review_count": 1365, "name": "Squeeze Inn", "longitude": "-121.40872", "phone": "9163868599", "address": "5301 PowerInn Road, Sacramento, CA", "latitude": "38.52687"}, {"rating": 4.0, "review_count": 968, "name": "St. Francis Fountain", "longitude": "-122.40834", "phone": "4158264200", "address": "2801 24th St., San Francisco, CA", "latitude": "37.75265"}, {"rating": 4.0, "review_count": 593, "name": "Stan's Donuts", "longitude": "-118.44702", "phone": "3102088660", "address": "10948 Weyburn Ave, Westwood, CA", "latitude": "34.06251"}, {"rating": 4.0, "review_count": 1135, "name": "Starling Diner", "longitude": "-118.14434", "phone": "5624332041", "address": "4114 East 3rd Street, Long Beach, CA", "latitude": "33.76792"}, {"rating": 4.0, "review_count": 2692, "name": "Suppenkuche", "longitude": "-122.42639", "phone": "4152529289", "address": "525 Laguna Street, San Francisco, CA", "latitude": "37.77626"}, {"rating": 4.0, "review_count": 1855, "name": "Swan Oyster Depot", "longitude": "-122.4207", "phone": "4156731101", "address": "1517 Polk St., San Francisco, CA", "latitude": "37.7907"}, {"rating": 4.5, "review_count": 2080, "name": "Tacos El Gordo", "longitude": "-117.09321", "phone": "6196918848", "address": "689 H Street, Chula Vista, CA", "latitude": "32.63009"}, {"rating": 4.0, "review_count": 281, "name": "Tacos El Paisa", "longitude": "-117.12755", "phone": "6192310622", "address": "3096 National Ave., San Diego, CA", "latitude": "32.69615"}, {"rating": 4.0, "review_count": 1559, "name": "Tadich Grill", "longitude": "-122.39922", "phone": "4153911849", "address": "240 California Street, San Francisco, CA", "latitude": "37.79334"}, {"rating": 3.5, "review_count": 249, "name": "Taqueria San Jose", "longitude": "-122.41843", "phone": "4152820203", "address": "2830 Mission Street, San Francisco, CA", "latitude": "37.75174"}, {"rating": 4.0, "review_count": 35, "name": "The Summit", "longitude": "-119.13596", "phone": "8059339898", "address": "12689 Ojai Santa Paula Road, Ojai, CA", "latitude": "34.4362"}, {"rating": 3.5, "review_count": 3499, "name": "Tito's Tacos", "longitude": "-118.42126", "phone": "3103915780", "address": "111222 Washington Place, Culver City, CA", "latitude": "34.00443"}, {"rating": 3.5, "review_count": 417, "name": "Ugly Roll Sushi", "longitude": "-118.42194", "phone": "3108378500", "address": "11128 Palms Boulevard, Los Angeles , CA", "latitude": "34.01939"}, {"rating": 4.0, "review_count": 1445, "name": "Val's Burgers", "longitude": "-122.06359", "phone": "5108898257", "address": "2115 Kelly Street, Hayward, CA", "latitude": "37.68377"}, {"rating": 3.5, "review_count": 1109, "name": "Waffle", "longitude": "-118.32554", "phone": "3234656901", "address": "6255 W. Sunset Blvd., Los Angeles, CA", "latitude": "34.09818"}, {"rating": 4.0, "review_count": 233, "name": "Whitey's Jolly Kone", "longitude": "-121.52344", "phone": "9163713605", "address": "1300 Jefferson Boulevard, West Sacramento, CA", "latitude": "38.57171"}, {"rating": 3.0, "review_count": 164, "name": "Wuksachi Lodge Dining Room", "longitude": "-118.75776", "phone": "5595654070", "address": "64740 Wuksachi Way, Sequoia National Park, CA", "latitude": "36.60814"}, {"rating": 3.5, "review_count": 470, "name": "Buckhorn Exchange", "longitude": "-105.0053", "phone": "3035349505", "address": "1000 Osage, Denver, CO", "latitude": "39.73211"}, {"rating": 4.5, "review_count": 21, "name": "Enstrom's", "longitude": "-104.9598", "phone": "3033221005", "address": "201 University Boulevard, Denver, CO", "latitude": "39.7201"}, {"rating": 3.0, "review_count": 129, "name": "Johnson's Corner", "longitude": "-104.98774", "phone": "9706672069", "address": "2842 SE Frontage Rd., Loveland, CO", "latitude": "40.36869"}, {"rating": 4.0, "review_count": 22, "name": "Juniper Valley Ranch", "longitude": "-104.91175", "phone": "7195760741", "address": "South Highway 115, Colorado Springs, CO", "latitude": "38.59332"}, {"rating": 4.0, "review_count": 20, "name": "Pass Key", "longitude": "-104.57917", "phone": "7195429144", "address": "1901 West US-50, Pueblo, CO", "latitude": "38.28603"}, {"rating": 4.0, "review_count": 66, "name": "Pepperhead", "longitude": "-108.58627", "phone": "9705653303", "address": "44 W. Main St, Cortez, CO", "latitude": "37.34894"}, {"rating": 3.5, "review_count": 31, "name": "Red Rooster Restaurant", "longitude": "-104.97259", "phone": "9705350889", "address": "4330 State Highway 66, Longmont, CO", "latitude": "40.20432"}, {"rating": 4.5, "review_count": 2180, "name": "Snooze", "longitude": "-105.00014", "phone": "3038253536", "address": "1701 Wynkoop St, Denver, CO", "latitude": "39.75312"}, {"latitude": "37.56467", "phone": "9702592257", "name": "Spud Mountain Hash House", "longitude": "-107.82436", "address": "46778 Highway 550, Durango, CO"}, {"rating": 3.0, "review_count": 5, "name": "Sundance Cafe & Lodge", "longitude": "-105.51124", "phone": "3032580804", "address": "23942 Hwy 119, Nederland, CO", "latitude": "39.96122"}, {"rating": 3.5, "review_count": 135, "name": "The Duffeyroll Cafe", "longitude": "-104.98009", "phone": "3037539177", "address": "1290 South Pearl Street, Denver, CO", "latitude": "39.69315"}, {"rating": 3.5, "review_count": 252, "name": "The Fort", "longitude": "-105.19263", "phone": "3036974771", "address": "19192 Highway 8, Morrison, CO", "latitude": "39.62906"}, {"rating": 4.5, "review_count": 164, "name": "Village Coffee Shop", "longitude": "-105.26347", "phone": "3034429689", "address": "1605 Folsom Street, Boulder, CO", "latitude": "40.01559"}, {"rating": 3.0, "review_count": 24, "name": "1st Street Apizza", "longitude": "-73.07384", "phone": "2038883255", "address": "21 First St., Seymour, CT", "latitude": "41.39517"}, {"rating": 4.0, "review_count": 285, "name": "Abbott's Lobster in the Rough", "longitude": "-71.98927", "phone": "8605367719", "address": "117 Pearl St, Noank, CT", "latitude": "41.3215"}, {"rating": 4.0, "review_count": 29, "name": "Al's Hot Dog Stand", "longitude": "-73.05008", "phone": "2037296229", "address": "248 South Main Street, Naugatuck, CT", "latitude": "41.48523"}, {"rating": 4.0, "review_count": 27, "name": "Amigo's Deli", "longitude": "-73.46228", "phone": "2037907683", "address": "130 West St., Danbury, CT", "latitude": "41.39316"}, {"rating": 3.5, "review_count": 94, "name": "Archie Moore\u2019s", "longitude": "-72.91028", "phone": "2037739870", "address": "188\u00bd Willow Street, New Haven, CT", "latitude": "41.32136"}, {"rating": 4.0, "review_count": 138, "name": "Ashley's Ice Cream", "longitude": "-72.92975", "phone": "2037767744", "address": "280 York Street, New Haven, CT", "latitude": "41.3111"}, {"rating": 3.5, "review_count": 96, "name": "Baja's", "longitude": "-72.98806", "phone": "2037992252", "address": "63 Boston Post Road, Orange, CT", "latitude": "41.27782"}, {"rating": 4.5, "review_count": 16, "name": "Bantam Bread Co.", "longitude": "-73.2749", "phone": "8605672737", "address": "853 Bantam Rd. (Route 202), Bantam, CT", "latitude": "41.705"}, {"rating": 4.0, "review_count": 24, "name": "Beardsley's Cider Mill & Orchard", "longitude": "-73.1498", "phone": "2039261098", "address": "278 Leavenworth Rd., Shelton, CT", "latitude": "41.3337"}, {"rating": 4.0, "review_count": 58, "name": "Bereket", "longitude": "-73.22686", "phone": "2033339393", "address": "2871 Fairfield Ave., Bridgeport, CT", "latitude": "41.15701"}, {"rating": 3.5, "review_count": 10, "name": "Bethel Hot Dog Palace", "longitude": "-73.3866", "phone": "2037905064", "address": "44 Stony Hill Rd., Bethel, CT", "latitude": "41.4155"}, {"rating": 3.5, "review_count": 148, "name": "Bidwell Tavern & Cafe", "longitude": "-72.30293", "phone": "8607426978", "address": "1260 Main Street, Coventry, CT", "latitude": "41.76867"}, {"latitude": "41.51645", "phone": "2037583200", "name": "Big Dipper Ice Cream Factory", "longitude": "-72.98782", "address": "91 Waterbury Rd., Prospect, CT"}, {"rating": 4.0, "review_count": 84, "name": "Bishop's Orchards", "longitude": "-72.6944", "phone": "2034532338", "address": "1355 Boston Post Road, Guilford, CT", "latitude": "41.289"}, {"rating": 4.0, "review_count": 88, "name": "Blackie's", "longitude": "-72.9581", "phone": "2036991819", "address": "2200 Waterbury Rd., Cheshire, CT", "latitude": "41.5446"}, {"rating": 3.0, "review_count": 155, "name": "Blue Colony Diner", "longitude": "-73.2957", "phone": "2034260745", "address": "Church Hill Rd., Newtown, CT", "latitude": "41.4172"}, {"rating": 2.5, "review_count": 12, "name": "Botsford Drive-In", "longitude": "-73.271", "phone": "2034264279", "address": "282 S. Main St., Newtown, CT", "latitude": "41.3672"}, {"rating": 4.0, "review_count": 7, "name": "Bridgewater Chocolate", "longitude": "-73.41", "phone": "2037752286", "address": "559 Federal Road, Brookfield, CT", "latitude": "41.4667"}, {"rating": 4.0, "review_count": 152, "name": "Broken Yolk Cafe", "longitude": "-72.09253", "phone": "8604370898", "address": "825 Montauk Avenue, New London, CT", "latitude": "41.32322"}, {"rating": 3.5, "review_count": 35, "name": "Burgerittoville", "longitude": "-73.29435", "phone": "2032703500", "address": "57 Church Hill Road, Newtown, CT", "latitude": "41.41746"}, {"rating": 4.5, "review_count": 137, "name": "Burgers, Shakes & Fries", "longitude": "-73.65351", "phone": "2035317433", "address": "302 Delavan Ave., Greenwich, CT", "latitude": "41.00281"}, {"latitude": "41.97117", "phone": "8606843089", "name": "Bush Meadow Farm", "longitude": "-72.19287", "address": "738 Buckley Highway, Union, CT"}, {"rating": 3.5, "review_count": 16, "name": "Cake Box", "longitude": "-73.49791", "phone": "2034032558", "address": "1 Big Shop Lane, Ridgefield, CT", "latitude": "41.2829"}, {"rating": 4.0, "review_count": 79, "name": "Capitol Lunch", "longitude": "-72.7812", "phone": "8602298237", "address": "510 Main St., New Britain, CT", "latitude": "41.6714"}, {"rating": 4.0, "review_count": 268, "name": "Captain Scott's Lobster Dock", "longitude": "-72.09858", "phone": "8604391741", "address": "80 Hamilton Street, New London, CT", "latitude": "41.34596"}, {"rating": 4.0, "review_count": 68, "name": "Carbone's", "longitude": "-72.6744", "phone": "8602969646", "address": "588 Franklin Ave., Hartford, CT", "latitude": "41.7323"}, {"rating": 3.5, "review_count": 45, "name": "Carminuccio's", "longitude": "-73.2936", "phone": "2033641133", "address": "76 South Main St., Newtown, CT", "latitude": "41.3964"}, {"rating": 4.5, "review_count": 8, "name": "Carolyn's Weenie Wagon", "longitude": "-73.07413", "phone": "", "address": "114 S. Main Street, Seymour, CT", "latitude": "41.38625"}, {"rating": 4.5, "review_count": 58, "name": "Chef\u2019s Dog House", "longitude": "-72.73649", "phone": "8606673700", "address": "337 Willard Avenue, Newington, CT", "latitude": "41.71046"}, {"rating": 4.0, "review_count": 60, "name": "Chez Ben Diner", "longitude": "-72.56204", "phone": "8606494011", "address": "927 Center Street, Manchester, CT", "latitude": "41.78076"}, {"rating": 5.0, "review_count": 4, "name": "Chez Lenard", "longitude": "-73.49828", "phone": "2034316324", "address": "Main St., Ridgefield, CT", "latitude": "41.28458"}, {"rating": 3.0, "review_count": 313, "name": "Claire's Corner Copia", "longitude": "-72.9287", "phone": "2035623888", "address": "1000 Chapel St., New Haven, CT", "latitude": "41.3073"}, {"rating": 4.0, "review_count": 94, "name": "Clam Castle", "longitude": "-72.5527", "phone": "2032454911", "address": "1324 Boston Post Rd., Madison, CT", "latitude": "41.2743"}, {"rating": 4.5, "review_count": 5, "name": "Clam Digger", "longitude": "-73.00606", "phone": "2037532526", "address": "1051 Wolcott St., Waterbury, CT", "latitude": "41.56923"}, {"rating": 4.0, "review_count": 7, "name": "Clamp's Hamburger Stand", "longitude": "-73.37938", "phone": "0000000000", "address": "Rte. 202, New Milford, CT\"", "latitude": "41.65486"}, {"rating": 4.5, "review_count": 52, "name": "Coffee An", "longitude": "-73.3622", "phone": "2032273808", "address": "343 Main St., Westport, CT", "latitude": "41.1508"}, {"rating": 4.0, "review_count": 225, "name": "Colony Grill", "longitude": "-73.5271", "phone": "2033592184", "address": "172 Myrtle Avenue, Stamford, CT", "latitude": "41.0509"}, {"rating": 4.0, "review_count": 72, "name": "Danny's Drive-In", "longitude": "-73.11441", "phone": "2033786728", "address": "940 Ferry Blvd., Stratford, CT", "latitude": "41.20035"}, {"rating": 3.5, "review_count": 20, "name": "David's Place", "longitude": "-72.2162", "phone": "8604427120", "address": "1647 Route 85, Chesterfield, CT", "latitude": "41.4284"}, {"latitude": "41.69032", "phone": "8602242636", "name": "Dawg House", "longitude": "-72.75984", "address": "1360 East St., New Britain, CT"}, {"rating": 3.5, "review_count": 22, "name": "Dayton Street Apizza", "longitude": "-72.96857", "phone": "2033892454", "address": "60 Dayton Street, New Haven, CT", "latitude": "41.3288"}, {"rating": 3.0, "review_count": 38, "name": "Denmo's Snack & Dairy Bar", "longitude": "-73.2218", "phone": "2032644626", "address": "346 Main St. S., Southbury, CT", "latitude": "41.4727"}, {"rating": 3.5, "review_count": 69, "name": "Doogie's", "longitude": "-72.7104", "phone": "8606666200", "address": "2525 Berlin Turnpike, Newington, CT", "latitude": "41.6828"}, {"rating": 3.5, "review_count": 80, "name": "Dottie's Diner", "longitude": "-73.20325", "phone": "2032632516", "address": "787 S. Main St, Woodbury, CT", "latitude": "41.52566"}, {"rating": 4.0, "review_count": 41, "name": "Dr. Mike's", "longitude": "-73.4129", "phone": "2037924388", "address": "158 Greenwood Ave., Bethel, CT", "latitude": "41.371"}, {"rating": 4.5, "review_count": 19, "name": "El Camion", "longitude": "-73.18246", "phone": "9176088484", "address": "308 Sherman Hill Rd., Woodbury, CT", "latitude": "41.52642"}, {"rating": 3.0, "review_count": 63, "name": "Eli's Brick Oven Pizza and Market", "longitude": "-72.90145", "phone": "2032881686", "address": "2402 Whitney Ave., Hamden, CT", "latitude": "41.38475"}, {"rating": 4.5, "review_count": 7, "name": "Five-O", "longitude": "-73.24223", "phone": "2033308452", "address": "1539 Black Rock Turnpike, Fairfield, CT", "latitude": "41.17771"}, {"rating": 3.0, "review_count": 103, "name": "Flaggstead Smokehouse", "longitude": "-72.83916", "phone": "8606746028", "address": "1085 Farmington Avenue, Farmington, CT", "latitude": "41.73565"}, {"rating": 3.5, "review_count": 94, "name": "Flanders Fish Market & Restaurant", "longitude": "-72.2102", "phone": "8607398866", "address": "22 Chesterfield Rd., East Lyme, CT", "latitude": "41.3678"}, {"rating": 3.5, "review_count": 75, "name": "Glenwood Drive-In", "longitude": "-72.8995", "phone": "2032810604", "address": "2538 Whitney Ave., Hamden, CT", "latitude": "41.3891"}, {"rating": 4.5, "review_count": 241, "name": "GoldBurgers", "longitude": "-72.72295", "phone": "8606640478", "address": "1096 Main St., Newington, CT", "latitude": "41.69686"}, {"rating": 4.5, "review_count": 53, "name": "Goulash Place", "longitude": "-73.4679", "phone": "2037441971", "address": "42 Highland Ave., Danbury, CT", "latitude": "41.397"}, {"rating": 3.5, "review_count": 44, "name": "Guida's", "longitude": "-72.7311", "phone": "8603499039", "address": "484 Meriden Rd., Middlefield, CT", "latitude": "41.5347"}, {"rating": 4.5, "review_count": 96, "name": "Harry's Bishop's Corner", "longitude": "-72.74792", "phone": "8602360400", "address": "732 North Main Street, West Hartford, CT", "latitude": "41.78735"}, {"rating": 4.0, "review_count": 64, "name": "Harry's Drive-In", "longitude": "-72.3348", "phone": "8605372410", "address": "104 Broadway, Colchester, CT", "latitude": "41.5775"}, {"rating": 5.0, "review_count": 17, "name": "Hosmer Mountain Soda", "longitude": "-72.21895", "phone": "8604231555", "address": "217 Mountain Street, Willimantic, CT", "latitude": "41.70736"}, {"rating": 4.5, "review_count": 11, "name": "Ice Cream Shop", "longitude": "-73.2955", "phone": "", "address": "51 Church Hill Rd., Newtown, CT", "latitude": "41.4173"}, {"rating": 3.5, "review_count": 58, "name": "Jerry's Pizza", "longitude": "-72.65352", "phone": "8603465335", "address": "635 South Main St., Middletown, CT", "latitude": "41.53942"}, {"rating": 3.0, "review_count": 52, "name": "Jim Barbarie's", "longitude": "-73.4662", "phone": "2037433287", "address": "47 Padanaram Rd., Danbury, CT", "latitude": "41.4191"}, {"rating": 4.0, "review_count": 39, "name": "JK's", "longitude": "-73.44272", "phone": "2037434004", "address": "126 South St., Danbury, CT", "latitude": "41.38704"}, {"rating": 3.5, "review_count": 69, "name": "Johnny Ad's", "longitude": "-72.3851", "phone": "8603884032", "address": "910 Boston Post Rd., Old Saybrook, CT", "latitude": "41.2905"}, {"rating": 4.0, "review_count": 69, "name": "Jordan's", "longitude": "-73.39247", "phone": "2038520003", "address": "368 Westport Ave., Norwalk, CT", "latitude": "41.12565"}, {"rating": 4.0, "review_count": 54, "name": "K. LaMay\u2019s Steamed Cheeseburgers", "longitude": "-72.78023", "phone": "2032378326", "address": "690 E. Main St., Meriden, CT", "latitude": "41.53008"}, {"rating": 4.0, "review_count": 40, "name": "Kamp Dog", "longitude": "-72.10012", "phone": "8604433000", "address": "15 Broad Street, New London, CT", "latitude": "41.35592"}, {"latitude": "41.3687", "phone": "2034266881", "name": "King's", "longitude": "-73.2708", "address": "271 S. Main St., Newtown, CT"}, {"rating": 4.0, "review_count": 138, "name": "Kitchen Little", "longitude": "-71.97129", "phone": "8605362122", "address": "36 Quarry Road, Mystic, CT", "latitude": "41.33763"}, {"rating": 4.5, "review_count": 21, "name": "Lake Zoar Drive-In", "longitude": "-73.18318", "phone": "2032688137", "address": "14 Roosevelt Dr., Stevenson, CT", "latitude": "41.38671"}, {"rating": 3.5, "review_count": 98, "name": "Lakeside Diner", "longitude": "-73.56704", "phone": "2033222252", "address": "1050 Long Ridge Rd., Stamford, CT", "latitude": "41.10436"}, {"rating": 4.0, "review_count": 57, "name": "LaSalle Market & Deli", "longitude": "-72.92281", "phone": "8606938010", "address": "104 Main Street, Collinsville, CT", "latitude": "41.81061"}, {"rating": 4.5, "review_count": 31, "name": "Laurel Diner", "longitude": "-73.2269", "phone": "2032648218", "address": "544 Main St. S., Southbury, CT", "latitude": "41.4686"}]